$GPGGA,190217.701,3809.559,N,12227.122,W,1,12,1.0,0.0,M,0.0,M,,*78
$GPGSA,A,3,01,02,03,04,05,06,07,08,09,10,11,12,1.0,1.0,1.0*30
$GPRMC,190217.701,A,3809.559,N,12227.122,W,038.9,156.2,240318,000.0,W*62
$GPGGA,190218.701,3809.549,N,12227.117,W,1,12,1.0,0.0,M,0.0,M,,*70
$GPGSA,A,3,01,02,03,04,05,06,07,08,09,10,11,12,1.0,1.0,1.0*30
$GPRMC,190218.701,A,3809.549,N,12227.117,W,038.9,156.2,240318,000.0,W*6A
$GPGGA,190219.701,3809.539,N,12227.112,W,1,12,1.0,0.0,M,0.0,M,,*73
$GPGSA,A,3,01,02,03,04,05,06,07,08,09,10,11,12,1.0,1.0,1.0*30
$GPRMC,190219.701,A,3809.539,N,12227.112,W,038.9,167.3,240318,000.0,W*6A
$GPGGA,190220.701,3809.528,N,12227.110,W,1,12,1.0,0.0,M,0.0,M,,*7B
$GPGSA,A,3,01,02,03,04,05,06,07,08,09,10,11,12,1.0,1.0,1.0*30
$GPRMC,190220.701,A,3809.528,N,12227.110,W,038.9,217.1,240318,000.0,W*64
$GPGGA,190221.701,3809.519,N,12227.117,W,1,12,1.0,0.0,M,0.0,M,,*7F
$GPGSA,A,3,01,02,03,04,05,06,07,08,09,10,11,12,1.0,1.0,1.0*30
$GPRMC,190221.701,A,3809.519,N,12227.117,W,038.9,268.5,240318,000.0,W*6C
$GPGGA,190222.701,3809.518,N,12227.131,W,1,12,1.0,0.0,M,0.0,M,,*79
$GPGSA,A,3,01,02,03,04,05,06,07,08,09,10,11,12,1.0,1.0,1.0*30
$GPRMC,190222.701,A,3809.518,N,12227.131,W,038.9,268.5,240318,000.0,W*6A
$GPGGA,190223.701,3809.518,N,12227.145,W,1,12,1.0,0.0,M,0.0,M,,*7B
$GPGSA,A,3,01,02,03,04,05,06,07,08,09,10,11,12,1.0,1.0,1.0*30
$GPRMC,190223.701,A,3809.518,N,12227.145,W,038.9,333.8,240318,000.0,W*6A
$GPGGA,190224.701,3809.528,N,12227.150,W,1,12,1.0,0.0,M,0.0,M,,*7B
$GPGSA,A,3,01,02,03,04,05,06,07,08,09,10,11,12,1.0,1.0,1.0*30
$GPRMC,190224.701,A,3809.528,N,12227.150,W,038.9,337.2,240318,000.0,W*64
$GPGGA,190225.701,3809.538,N,12227.154,W,1,12,1.0,0.0,M,0.0,M,,*7F
$GPGSA,A,3,01,02,03,04,05,06,07,08,09,10,11,12,1.0,1.0,1.0*30
$GPRMC,190225.701,A,3809.538,N,12227.154,W,038.9,337.2,240318,000.0,W*60
$GPGGA,190226.701,3809.549,N,12227.158,W,1,12,1.0,0.0,M,0.0,M,,*76
$GPGSA,A,3,01,02,03,04,05,06,07,08,09,10,11,12,1.0,1.0,1.0*30
$GPRMC,190226.701,A,3809.549,N,12227.158,W,038.9,337.2,240318,000.0,W*69
$GPGGA,190227.701,3809.559,N,12227.162,W,1,12,1.0,0.0,M,0.0,M,,*7F
$GPGSA,A,3,01,02,03,04,05,06,07,08,09,10,11,12,1.0,1.0,1.0*30
$GPRMC,190227.701,A,3809.559,N,12227.162,W,038.9,337.2,240318,000.0,W*60
$GPGGA,190228.701,3809.569,N,12227.167,W,1,12,1.0,0.0,M,0.0,M,,*76
$GPGSA,A,3,01,02,03,04,05,06,07,08,09,10,11,12,1.0,1.0,1.0*30
$GPRMC,190228.701,A,3809.569,N,12227.167,W,038.9,337.2,240318,000.0,W*69
$GPGGA,190229.701,3809.579,N,12227.171,W,1,12,1.0,0.0,M,0.0,M,,*71
$GPGSA,A,3,01,02,03,04,05,06,07,08,09,10,11,12,1.0,1.0,1.0*30
$GPRMC,190229.701,A,3809.579,N,12227.171,W,038.9,337.2,240318,000.0,W*6E
$GPGGA,190230.701,3809.590,N,12227.175,W,1,12,1.0,0.0,M,0.0,M,,*7A
$GPGSA,A,3,01,02,03,04,05,06,07,08,09,10,11,12,1.0,1.0,1.0*30
$GPRMC,190230.701,A,3809.590,N,12227.175,W,038.9,337.2,240318,000.0,W*65
$GPGGA,190231.701,3809.600,N,12227.180,W,1,12,1.0,0.0,M,0.0,M,,*7B
$GPGSA,A,3,01,02,03,04,05,06,07,08,09,10,11,12,1.0,1.0,1.0*30
$GPRMC,190231.701,A,3809.600,N,12227.180,W,038.9,337.2,240318,000.0,W*64
$GPGGA,190232.701,3809.610,N,12227.184,W,1,12,1.0,0.0,M,0.0,M,,*7D
$GPGSA,A,3,01,02,03,04,05,06,07,08,09,10,11,12,1.0,1.0,1.0*30
$GPRMC,190232.701,A,3809.610,N,12227.184,W,038.9,337.2,240318,000.0,W*62
$GPGGA,190233.701,3809.620,N,12227.188,W,1,12,1.0,0.0,M,0.0,M,,*73
$GPGSA,A,3,01,02,03,04,05,06,07,08,09,10,11,12,1.0,1.0,1.0*30
$GPRMC,190233.701,A,3809.620,N,12227.188,W,038.9,337.2,240318,000.0,W*6C
$GPGGA,190234.701,3809.631,N,12227.193,W,1,12,1.0,0.0,M,0.0,M,,*7E
$GPGSA,A,3,01,02,03,04,05,06,07,08,09,10,11,12,1.0,1.0,1.0*30
$GPRMC,190234.701,A,3809.631,N,12227.193,W,038.9,313.1,240318,000.0,W*64
$GPGGA,190235.701,3809.639,N,12227.201,W,1,12,1.0,0.0,M,0.0,M,,*7F
$GPGSA,A,3,01,02,03,04,05,06,07,08,09,10,11,12,1.0,1.0,1.0*30
$GPRMC,190235.701,A,3809.639,N,12227.201,W,038.9,313.1,240318,000.0,W*65
$GPGGA,190236.701,3809.647,N,12227.210,W,1,12,1.0,0.0,M,0.0,M,,*75
$GPGSA,A,3,01,02,03,04,05,06,07,08,09,10,11,12,1.0,1.0,1.0*30
$GPRMC,190236.701,A,3809.647,N,12227.210,W,038.9,302.2,240318,000.0,W*6C
$GPGGA,190237.701,3809.654,N,12227.221,W,1,12,1.0,0.0,M,0.0,M,,*74
$GPGSA,A,3,01,02,03,04,05,06,07,08,09,10,11,12,1.0,1.0,1.0*30
$GPRMC,190237.701,A,3809.654,N,12227.221,W,038.9,302.2,240318,000.0,W*6D
$GPGGA,190238.701,3809.660,N,12227.232,W,1,12,1.0,0.0,M,0.0,M,,*7E
$GPGSA,A,3,01,02,03,04,05,06,07,08,09,10,11,12,1.0,1.0,1.0*30
$GPRMC,190238.701,A,3809.660,N,12227.232,W,038.9,302.2,240318,000.0,W*67
$GPGGA,190239.701,3809.667,N,12227.242,W,1,12,1.0,0.0,M,0.0,M,,*7F
$GPGSA,A,3,01,02,03,04,05,06,07,08,09,10,11,12,1.0,1.0,1.0*30
$GPRMC,190239.701,A,3809.667,N,12227.242,W,038.9,302.2,240318,000.0,W*66
$GPGGA,190240.701,3809.674,N,12227.253,W,1,12,1.0,0.0,M,0.0,M,,*73
$GPGSA,A,3,01,02,03,04,05,06,07,08,09,10,11,12,1.0,1.0,1.0*30
$GPRMC,190240.701,A,3809.674,N,12227.253,W,038.9,300.7,240318,000.0,W*6D
$GPGGA,190241.701,3809.680,N,12227.264,W,1,12,1.0,0.0,M,0.0,M,,*7D
$GPGSA,A,3,01,02,03,04,05,06,07,08,09,10,11,12,1.0,1.0,1.0*30
$GPRMC,190241.701,A,3809.680,N,12227.264,W,038.9,300.7,240318,000.0,W*63
$GPGGA,190242.701,3809.687,N,12227.275,W,1,12,1.0,0.0,M,0.0,M,,*79
$GPGSA,A,3,01,02,03,04,05,06,07,08,09,10,11,12,1.0,1.0,1.0*30
$GPRMC,190242.701,A,3809.687,N,12227.275,W,038.9,300.7,240318,000.0,W*67
$GPGGA,190243.701,3809.693,N,12227.286,W,1,12,1.0,0.0,M,0.0,M,,*71
$GPGSA,A,3,01,02,03,04,05,06,07,08,09,10,11,12,1.0,1.0,1.0*30
$GPRMC,190243.701,A,3809.693,N,12227.286,W,038.9,300.7,240318,000.0,W*6F
$GPGGA,190244.701,3809.700,N,12227.297,W,1,12,1.0,0.0,M,0.0,M,,*7D
$GPGSA,A,3,01,02,03,04,05,06,07,08,09,10,11,12,1.0,1.0,1.0*30
$GPRMC,190244.701,A,3809.700,N,12227.297,W,038.9,300.7,240318,000.0,W*63
$GPGGA,190245.701,3809.706,N,12227.308,W,1,12,1.0,0.0,M,0.0,M,,*7D
$GPGSA,A,3,01,02,03,04,05,06,07,08,09,10,11,12,1.0,1.0,1.0*30
$GPRMC,190245.701,A,3809.706,N,12227.308,W,038.9,300.7,240318,000.0,W*63
$GPGGA,190246.701,3809.713,N,12227.319,W,1,12,1.0,0.0,M,0.0,M,,*7A
$GPGSA,A,3,01,02,03,04,05,06,07,08,09,10,11,12,1.0,1.0,1.0*30
$GPRMC,190246.701,A,3809.713,N,12227.319,W,038.9,300.7,240318,000.0,W*64
$GPGGA,190247.701,3809.719,N,12227.330,W,1,12,1.0,0.0,M,0.0,M,,*7A
$GPGSA,A,3,01,02,03,04,05,06,07,08,09,10,11,12,1.0,1.0,1.0*30
$GPRMC,190247.701,A,3809.719,N,12227.330,W,038.9,300.7,240318,000.0,W*64
$GPGGA,190248.701,3809.726,N,12227.341,W,1,12,1.0,0.0,M,0.0,M,,*7F
$GPGSA,A,3,01,02,03,04,05,06,07,08,09,10,11,12,1.0,1.0,1.0*30
$GPRMC,190248.701,A,3809.726,N,12227.341,W,038.9,270.2,240318,000.0,W*62
$GPGGA,190249.701,3809.726,N,12227.355,W,1,12,1.0,0.0,M,0.0,M,,*7B
$GPGSA,A,3,01,02,03,04,05,06,07,08,09,10,11,12,1.0,1.0,1.0*30
$GPRMC,190249.701,A,3809.726,N,12227.355,W,038.9,270.2,240318,000.0,W*66
$GPGGA,190250.701,3809.726,N,12227.368,W,1,12,1.0,0.0,M,0.0,M,,*7D
$GPGSA,A,3,01,02,03,04,05,06,07,08,09,10,11,12,1.0,1.0,1.0*30
$GPRMC,190250.701,A,3809.726,N,12227.368,W,038.9,270.2,240318,000.0,W*60
$GPGGA,190251.701,3809.726,N,12227.382,W,1,12,1.0,0.0,M,0.0,M,,*78
$GPGSA,A,3,01,02,03,04,05,06,07,08,09,10,11,12,1.0,1.0,1.0*30
$GPRMC,190251.701,A,3809.726,N,12227.382,W,038.9,270.2,240318,000.0,W*65
$GPGGA,190252.701,3809.726,N,12227.396,W,1,12,1.0,0.0,M,0.0,M,,*7E
$GPGSA,A,3,01,02,03,04,05,06,07,08,09,10,11,12,1.0,1.0,1.0*30
$GPRMC,190252.701,A,3809.726,N,12227.396,W,038.9,270.2,240318,000.0,W*63
$GPGGA,190253.701,3809.726,N,12227.410,W,1,12,1.0,0.0,M,0.0,M,,*76
$GPGSA,A,3,01,02,03,04,05,06,07,08,09,10,11,12,1.0,1.0,1.0*30
$GPRMC,190253.701,A,3809.726,N,12227.410,W,038.9,270.2,240318,000.0,W*6B
$GPGGA,190254.701,3809.726,N,12227.423,W,1,12,1.0,0.0,M,0.0,M,,*71
$GPGSA,A,3,01,02,03,04,05,06,07,08,09,10,11,12,1.0,1.0,1.0*30
$GPRMC,190254.701,A,3809.726,N,12227.423,W,038.9,270.2,240318,000.0,W*6C
$GPGGA,190255.701,3809.726,N,12227.437,W,1,12,1.0,0.0,M,0.0,M,,*75
$GPGSA,A,3,01,02,03,04,05,06,07,08,09,10,11,12,1.0,1.0,1.0*30
$GPRMC,190255.701,A,3809.726,N,12227.437,W,038.9,243.6,240318,000.0,W*6C
$GPGGA,190256.701,3809.720,N,12227.449,W,1,12,1.0,0.0,M,0.0,M,,*79
$GPGSA,A,3,01,02,03,04,05,06,07,08,09,10,11,12,1.0,1.0,1.0*30
$GPRMC,190256.701,A,3809.720,N,12227.449,W,038.9,243.6,240318,000.0,W*60
$GPGGA,190257.701,3809.715,N,12227.460,W,1,12,1.0,0.0,M,0.0,M,,*75
$GPGSA,A,3,01,02,03,04,05,06,07,08,09,10,11,12,1.0,1.0,1.0*30
$GPRMC,190257.701,A,3809.715,N,12227.460,W,038.9,243.6,240318,000.0,W*6C
$GPGGA,190258.701,3809.709,N,12227.472,W,1,12,1.0,0.0,M,0.0,M,,*74
$GPGSA,A,3,01,02,03,04,05,06,07,08,09,10,11,12,1.0,1.0,1.0*30
$GPRMC,190258.701,A,3809.709,N,12227.472,W,038.9,230.1,240318,000.0,W*6E
$GPGGA,190259.701,3809.701,N,12227.481,W,1,12,1.0,0.0,M,0.0,M,,*71
$GPGSA,A,3,01,02,03,04,05,06,07,08,09,10,11,12,1.0,1.0,1.0*30
$GPRMC,190259.701,A,3809.701,N,12227.481,W,038.9,230.1,240318,000.0,W*6B
$GPGGA,190300.701,3809.693,N,12227.491,W,1,12,1.0,0.0,M,0.0,M,,*77
$GPGSA,A,3,01,02,03,04,05,06,07,08,09,10,11,12,1.0,1.0,1.0*30
$GPRMC,190300.701,A,3809.693,N,12227.491,W,038.9,214.7,240318,000.0,W*6D
$GPGGA,190301.701,3809.684,N,12227.497,W,1,12,1.0,0.0,M,0.0,M,,*76
$GPGSA,A,3,01,02,03,04,05,06,07,08,09,10,11,12,1.0,1.0,1.0*30
$GPRMC,190301.701,A,3809.684,N,12227.497,W,038.9,214.7,240318,000.0,W*6C
$GPGGA,190302.701,3809.674,N,12227.504,W,1,12,1.0,0.0,M,0.0,M,,*71
$GPGSA,A,3,01,02,03,04,05,06,07,08,09,10,11,12,1.0,1.0,1.0*30
$GPRMC,190302.701,A,3809.674,N,12227.504,W,038.9,214.7,240318,000.0,W*6B
$GPGGA,190303.701,3809.665,N,12227.510,W,1,12,1.0,0.0,M,0.0,M,,*75
$GPGSA,A,3,01,02,03,04,05,06,07,08,09,10,11,12,1.0,1.0,1.0*30
$GPRMC,190303.701,A,3809.665,N,12227.510,W,038.9,251.6,240318,000.0,W*6F
$GPGGA,190304.701,3809.661,N,12227.523,W,1,12,1.0,0.0,M,0.0,M,,*76
$GPGSA,A,3,01,02,03,04,05,06,07,08,09,10,11,12,1.0,1.0,1.0*30
$GPRMC,190304.701,A,3809.661,N,12227.523,W,038.9,264.6,240318,000.0,W*6A
$GPGGA,190305.701,3809.659,N,12227.537,W,1,12,1.0,0.0,M,0.0,M,,*79
$GPGSA,A,3,01,02,03,04,05,06,07,08,09,10,11,12,1.0,1.0,1.0*30
$GPRMC,190305.701,A,3809.659,N,12227.537,W,038.9,280.3,240318,000.0,W*6A
$GPGGA,190306.701,3809.662,N,12227.550,W,1,12,1.0,0.0,M,0.0,M,,*73
$GPGSA,A,3,01,02,03,04,05,06,07,08,09,10,11,12,1.0,1.0,1.0*30
$GPRMC,190306.701,A,3809.662,N,12227.550,W,038.9,300.6,240318,000.0,W*6C
$GPGGA,190307.701,3809.668,N,12227.561,W,1,12,1.0,0.0,M,0.0,M,,*7A
$GPGSA,A,3,01,02,03,04,05,06,07,08,09,10,11,12,1.0,1.0,1.0*30
$GPRMC,190307.701,A,3809.668,N,12227.561,W,038.9,300.6,240318,000.0,W*65
$GPGGA,190308.701,3809.675,N,12227.572,W,1,12,1.0,0.0,M,0.0,M,,*7B
$GPGSA,A,3,01,02,03,04,05,06,07,08,09,10,11,12,1.0,1.0,1.0*30
$GPRMC,190308.701,A,3809.675,N,12227.572,W,038.9,300.6,240318,000.0,W*64
$GPGGA,190309.701,3809.681,N,12227.583,W,1,12,1.0,0.0,M,0.0,M,,*7F
$GPGSA,A,3,01,02,03,04,05,06,07,08,09,10,11,12,1.0,1.0,1.0*30
$GPRMC,190309.701,A,3809.681,N,12227.583,W,038.9,309.8,240318,000.0,W*67
$GPGGA,190310.701,3809.689,N,12227.592,W,1,12,1.0,0.0,M,0.0,M,,*7F
$GPGSA,A,3,01,02,03,04,05,06,07,08,09,10,11,12,1.0,1.0,1.0*30
$GPRMC,190310.701,A,3809.689,N,12227.592,W,038.9,309.8,240318,000.0,W*67
$GPGGA,190311.701,3809.697,N,12227.602,W,1,12,1.0,0.0,M,0.0,M,,*7B
$GPGSA,A,3,01,02,03,04,05,06,07,08,09,10,11,12,1.0,1.0,1.0*30
$GPRMC,190311.701,A,3809.697,N,12227.602,W,038.9,309.8,240318,000.0,W*63
$GPGGA,190312.701,3809.705,N,12227.611,W,1,12,1.0,0.0,M,0.0,M,,*70
$GPGSA,A,3,01,02,03,04,05,06,07,08,09,10,11,12,1.0,1.0,1.0*30
$GPRMC,190312.701,A,3809.705,N,12227.611,W,038.9,309.8,240318,000.0,W*68
$GPGGA,190313.701,3809.713,N,12227.621,W,1,12,1.0,0.0,M,0.0,M,,*75
$GPGSA,A,3,01,02,03,04,05,06,07,08,09,10,11,12,1.0,1.0,1.0*30
$GPRMC,190313.701,A,3809.713,N,12227.621,W,038.9,309.8,240318,000.0,W*6D
$GPGGA,190314.701,3809.720,N,12227.630,W,1,12,1.0,0.0,M,0.0,M,,*72
$GPGSA,A,3,01,02,03,04,05,06,07,08,09,10,11,12,1.0,1.0,1.0*30
$GPRMC,190314.701,A,3809.720,N,12227.630,W,038.9,320.2,240318,000.0,W*6B
$GPGGA,190315.701,3809.729,N,12227.638,W,1,12,1.0,0.0,M,0.0,M,,*72
$GPGSA,A,3,01,02,03,04,05,06,07,08,09,10,11,12,1.0,1.0,1.0*30
$GPRMC,190315.701,A,3809.729,N,12227.638,W,038.9,320.2,240318,000.0,W*6B
$GPGGA,190316.701,3809.738,N,12227.645,W,1,12,1.0,0.0,M,0.0,M,,*7B
$GPGSA,A,3,01,02,03,04,05,06,07,08,09,10,11,12,1.0,1.0,1.0*30
$GPRMC,190316.701,A,3809.738,N,12227.645,W,038.9,320.2,240318,000.0,W*62
$GPGGA,190317.701,3809.748,N,12227.653,W,1,12,1.0,0.0,M,0.0,M,,*7A
$GPGSA,A,3,01,02,03,04,05,06,07,08,09,10,11,12,1.0,1.0,1.0*30
$GPRMC,190317.701,A,3809.748,N,12227.653,W,038.9,295.4,240318,000.0,W*6A
$GPGGA,190318.701,3809.753,N,12227.664,W,1,12,1.0,0.0,M,0.0,M,,*7B
$GPGSA,A,3,01,02,03,04,05,06,07,08,09,10,11,12,1.0,1.0,1.0*30
$GPRMC,190318.701,A,3809.753,N,12227.664,W,038.9,282.7,240318,000.0,W*6E
$GPGGA,190319.701,3809.756,N,12227.678,W,1,12,1.0,0.0,M,0.0,M,,*72
$GPGSA,A,3,01,02,03,04,05,06,07,08,09,10,11,12,1.0,1.0,1.0*30
$GPRMC,190319.701,A,3809.756,N,12227.678,W,038.9,269.2,240318,000.0,W*67
$GPGGA,190320.701,3809.756,N,12227.691,W,1,12,1.0,0.0,M,0.0,M,,*7F
$GPGSA,A,3,01,02,03,04,05,06,07,08,09,10,11,12,1.0,1.0,1.0*30
$GPRMC,190320.701,A,3809.756,N,12227.691,W,038.9,269.2,240318,000.0,W*6A
$GPGGA,190321.701,3809.756,N,12227.705,W,1,12,1.0,0.0,M,0.0,M,,*72
$GPGSA,A,3,01,02,03,04,05,06,07,08,09,10,11,12,1.0,1.0,1.0*30
$GPRMC,190321.701,A,3809.756,N,12227.705,W,038.9,269.2,240318,000.0,W*67
$GPGGA,190322.701,3809.755,N,12227.719,W,1,12,1.0,0.0,M,0.0,M,,*7F
$GPGSA,A,3,01,02,03,04,05,06,07,08,09,10,11,12,1.0,1.0,1.0*30
$GPRMC,190322.701,A,3809.755,N,12227.719,W,038.9,282.3,240318,000.0,W*6E
$GPGGA,190323.701,3809.758,N,12227.732,W,1,12,1.0,0.0,M,0.0,M,,*7A
$GPGSA,A,3,01,02,03,04,05,06,07,08,09,10,11,12,1.0,1.0,1.0*30
$GPRMC,190323.701,A,3809.758,N,12227.732,W,038.9,303.0,240318,000.0,W*60
$GPGGA,190324.701,3809.765,N,12227.743,W,1,12,1.0,0.0,M,0.0,M,,*75
$GPGSA,A,3,01,02,03,04,05,06,07,08,09,10,11,12,1.0,1.0,1.0*30
$GPRMC,190324.701,A,3809.765,N,12227.743,W,038.9,318.1,240318,000.0,W*64
$GPGGA,190325.701,3809.774,N,12227.751,W,1,12,1.0,0.0,M,0.0,M,,*77
$GPGSA,A,3,01,02,03,04,05,06,07,08,09,10,11,12,1.0,1.0,1.0*30
$GPRMC,190325.701,A,3809.774,N,12227.751,W,038.9,318.1,240318,000.0,W*66
$GPGGA,190326.701,3809.783,N,12227.759,W,1,12,1.0,0.0,M,0.0,M,,*74
$GPGSA,A,3,01,02,03,04,05,06,07,08,09,10,11,12,1.0,1.0,1.0*30
$GPRMC,190326.701,A,3809.783,N,12227.759,W,038.9,320.5,240318,000.0,W*6A
$GPGGA,190327.701,3809.792,N,12227.766,W,1,12,1.0,0.0,M,0.0,M,,*79
$GPGSA,A,3,01,02,03,04,05,06,07,08,09,10,11,12,1.0,1.0,1.0*30
$GPRMC,190327.701,A,3809.792,N,12227.766,W,038.9,320.5,240318,000.0,W*67
$GPGGA,190328.701,3809.801,N,12227.773,W,1,12,1.0,0.0,M,0.0,M,,*77
$GPGSA,A,3,01,02,03,04,05,06,07,08,09,10,11,12,1.0,1.0,1.0*30
$GPRMC,190328.701,A,3809.801,N,12227.773,W,038.9,320.5,240318,000.0,W*69
$GPGGA,190329.701,3809.810,N,12227.781,W,1,12,1.0,0.0,M,0.0,M,,*7B
$GPGSA,A,3,01,02,03,04,05,06,07,08,09,10,11,12,1.0,1.0,1.0*30
$GPRMC,190329.701,A,3809.810,N,12227.781,W,038.9,320.5,240318,000.0,W*65
$GPGGA,190330.701,3809.819,N,12227.788,W,1,12,1.0,0.0,M,0.0,M,,*73
$GPGSA,A,3,01,02,03,04,05,06,07,08,09,10,11,12,1.0,1.0,1.0*30
$GPRMC,190330.701,A,3809.819,N,12227.788,W,038.9,320.5,240318,000.0,W*6D
$GPGGA,190331.701,3809.828,N,12227.796,W,1,12,1.0,0.0,M,0.0,M,,*7F
$GPGSA,A,3,01,02,03,04,05,06,07,08,09,10,11,12,1.0,1.0,1.0*30
$GPRMC,190331.701,A,3809.828,N,12227.796,W,038.9,320.5,240318,000.0,W*61
$GPGGA,190332.701,3809.837,N,12227.803,W,1,12,1.0,0.0,M,0.0,M,,*71
$GPGSA,A,3,01,02,03,04,05,06,07,08,09,10,11,12,1.0,1.0,1.0*30
$GPRMC,190332.701,A,3809.837,N,12227.803,W,038.9,007.3,240318,000.0,W*6F
$GPGGA,190333.701,3809.848,N,12227.802,W,1,12,1.0,0.0,M,0.0,M,,*79
$GPGSA,A,3,01,02,03,04,05,06,07,08,09,10,11,12,1.0,1.0,1.0*30
$GPRMC,190333.701,A,3809.848,N,12227.802,W,038.9,053.8,240318,000.0,W*6D
$GPGGA,190334.701,3809.855,N,12227.792,W,1,12,1.0,0.0,M,0.0,M,,*74
$GPGSA,A,3,01,02,03,04,05,06,07,08,09,10,11,12,1.0,1.0,1.0*30
$GPRMC,190334.701,A,3809.855,N,12227.792,W,038.9,073.3,240318,000.0,W*69
$GPGGA,190335.701,3809.859,N,12227.779,W,1,12,1.0,0.0,M,0.0,M,,*7C
$GPGSA,A,3,01,02,03,04,05,06,07,08,09,10,11,12,1.0,1.0,1.0*30
$GPRMC,190335.701,A,3809.859,N,12227.779,W,038.9,079.6,240318,000.0,W*6E
$GPGGA,190336.701,3809.862,N,12227.766,W,1,12,1.0,0.0,M,0.0,M,,*79
$GPGSA,A,3,01,02,03,04,05,06,07,08,09,10,11,12,1.0,1.0,1.0*30
$GPRMC,190336.701,A,3809.862,N,12227.766,W,038.9,079.6,240318,000.0,W*6B
$GPGGA,190337.701,3809.864,N,12227.752,W,1,12,1.0,0.0,M,0.0,M,,*79
$GPGSA,A,3,01,02,03,04,05,06,07,08,09,10,11,12,1.0,1.0,1.0*30
$GPRMC,190337.701,A,3809.864,N,12227.752,W,038.9,079.6,240318,000.0,W*6B
$GPGGA,190338.701,3809.866,N,12227.739,W,1,12,1.0,0.0,M,0.0,M,,*79
$GPGSA,A,3,01,02,03,04,05,06,07,08,09,10,11,12,1.0,1.0,1.0*30
$GPRMC,190338.701,A,3809.866,N,12227.739,W,038.9,079.6,240318,000.0,W*6B
$GPGGA,190339.701,3809.869,N,12227.726,W,1,12,1.0,0.0,M,0.0,M,,*79
$GPGSA,A,3,01,02,03,04,05,06,07,08,09,10,11,12,1.0,1.0,1.0*30
$GPRMC,190339.701,A,3809.869,N,12227.726,W,038.9,079.6,240318,000.0,W*6B
$GPGGA,190340.701,3809.871,N,12227.712,W,1,12,1.0,0.0,M,0.0,M,,*79
$GPGSA,A,3,01,02,03,04,05,06,07,08,09,10,11,12,1.0,1.0,1.0*30
$GPRMC,190340.701,A,3809.871,N,12227.712,W,038.9,094.4,240318,000.0,W*6A
$GPGGA,190341.701,3809.870,N,12227.699,W,1,12,1.0,0.0,M,0.0,M,,*7B
$GPGSA,A,3,01,02,03,04,05,06,07,08,09,10,11,12,1.0,1.0,1.0*30
$GPRMC,190341.701,A,3809.870,N,12227.699,W,038.9,094.4,240318,000.0,W*68
$GPGGA,190342.701,3809.869,N,12227.685,W,1,12,1.0,0.0,M,0.0,M,,*7D
$GPGSA,A,3,01,02,03,04,05,06,07,08,09,10,11,12,1.0,1.0,1.0*30
$GPRMC,190342.701,A,3809.869,N,12227.685,W,038.9,106.7,240318,000.0,W*67
$GPGGA,190343.701,3809.865,N,12227.672,W,1,12,1.0,0.0,M,0.0,M,,*78
$GPGSA,A,3,01,02,03,04,05,06,07,08,09,10,11,12,1.0,1.0,1.0*30
$GPRMC,190343.701,A,3809.865,N,12227.672,W,038.9,106.7,240318,000.0,W*62
$GPGGA,190344.701,3809.862,N,12227.659,W,1,12,1.0,0.0,M,0.0,M,,*71
$GPGSA,A,3,01,02,03,04,05,06,07,08,09,10,11,12,1.0,1.0,1.0*30
$GPRMC,190344.701,A,3809.862,N,12227.659,W,038.9,127.0,240318,000.0,W*6F
$GPGGA,190345.701,3809.854,N,12227.649,W,1,12,1.0,0.0,M,0.0,M,,*74
$GPGSA,A,3,01,02,03,04,05,06,07,08,09,10,11,12,1.0,1.0,1.0*30
$GPRMC,190345.701,A,3809.854,N,12227.649,W,038.9,127.0,240318,000.0,W*6A
$GPGGA,190346.701,3809.847,N,12227.639,W,1,12,1.0,0.0,M,0.0,M,,*72
$GPGSA,A,3,01,02,03,04,05,06,07,08,09,10,11,12,1.0,1.0,1.0*30
$GPRMC,190346.701,A,3809.847,N,12227.639,W,038.9,139.8,240318,000.0,W*6B
$GPGGA,190347.701,3809.838,N,12227.632,W,1,12,1.0,0.0,M,0.0,M,,*70
$GPGSA,A,3,01,02,03,04,05,06,07,08,09,10,11,12,1.0,1.0,1.0*30
$GPRMC,190347.701,A,3809.838,N,12227.632,W,038.9,139.8,240318,000.0,W*69
$GPGGA,190348.701,3809.829,N,12227.624,W,1,12,1.0,0.0,M,0.0,M,,*78
$GPGSA,A,3,01,02,03,04,05,06,07,08,09,10,11,12,1.0,1.0,1.0*30
$GPRMC,190348.701,A,3809.829,N,12227.624,W,038.9,139.8,240318,000.0,W*61
$GPGGA,190349.701,3809.820,N,12227.617,W,1,12,1.0,0.0,M,0.0,M,,*70
$GPGSA,A,3,01,02,03,04,05,06,07,08,09,10,11,12,1.0,1.0,1.0*30
$GPRMC,190349.701,A,3809.820,N,12227.617,W,038.9,139.8,240318,000.0,W*69
$GPGGA,190350.701,3809.811,N,12227.609,W,1,12,1.0,0.0,M,0.0,M,,*75
$GPGSA,A,3,01,02,03,04,05,06,07,08,09,10,11,12,1.0,1.0,1.0*30
$GPRMC,190350.701,A,3809.811,N,12227.609,W,038.9,139.8,240318,000.0,W*6C
$GPGGA,190351.701,3809.802,N,12227.601,W,1,12,1.0,0.0,M,0.0,M,,*7E
$GPGSA,A,3,01,02,03,04,05,06,07,08,09,10,11,12,1.0,1.0,1.0*30
$GPRMC,190351.701,A,3809.802,N,12227.601,W,038.9,139.8,240318,000.0,W*67
$GPGGA,190352.701,3809.793,N,12227.594,W,1,12,1.0,0.0,M,0.0,M,,*75
$GPGSA,A,3,01,02,03,04,05,06,07,08,09,10,11,12,1.0,1.0,1.0*30
$GPRMC,190352.701,A,3809.793,N,12227.594,W,038.9,139.8,240318,000.0,W*6C
$GPGGA,190353.701,3809.784,N,12227.586,W,1,12,1.0,0.0,M,0.0,M,,*71
$GPGSA,A,3,01,02,03,04,05,06,07,08,09,10,11,12,1.0,1.0,1.0*30
$GPRMC,190353.701,A,3809.784,N,12227.586,W,038.9,139.8,240318,000.0,W*68
$GPGGA,190354.701,3809.775,N,12227.579,W,1,12,1.0,0.0,M,0.0,M,,*78
$GPGSA,A,3,01,02,03,04,05,06,07,08,09,10,11,12,1.0,1.0,1.0*30
$GPRMC,190354.701,A,3809.775,N,12227.579,W,038.9,139.8,240318,000.0,W*61
$GPGGA,190355.701,3809.766,N,12227.571,W,1,12,1.0,0.0,M,0.0,M,,*73
$GPGSA,A,3,01,02,03,04,05,06,07,08,09,10,11,12,1.0,1.0,1.0*30
$GPRMC,190355.701,A,3809.766,N,12227.571,W,038.9,114.0,240318,000.0,W*6D
$GPGGA,190356.701,3809.761,N,12227.559,W,1,12,1.0,0.0,M,0.0,M,,*7D
$GPGSA,A,3,01,02,03,04,05,06,07,08,09,10,11,12,1.0,1.0,1.0*30
$GPRMC,190356.701,A,3809.761,N,12227.559,W,038.9,114.0,240318,000.0,W*63
$GPGGA,190357.701,3809.755,N,12227.547,W,1,12,1.0,0.0,M,0.0,M,,*74
$GPGSA,A,3,01,02,03,04,05,06,07,08,09,10,11,12,1.0,1.0,1.0*30
$GPRMC,190357.701,A,3809.755,N,12227.547,W,038.9,084.7,240318,000.0,W*65
$GPGGA,190358.701,3809.756,N,12227.533,W,1,12,1.0,0.0,M,0.0,M,,*7B
$GPGSA,A,3,01,02,03,04,05,06,07,08,09,10,11,12,1.0,1.0,1.0*30
$GPRMC,190358.701,A,3809.756,N,12227.533,W,038.9,084.7,240318,000.0,W*6A
$GPGGA,190359.701,3809.758,N,12227.520,W,1,12,1.0,0.0,M,0.0,M,,*76
$GPGSA,A,3,01,02,03,04,05,06,07,08,09,10,11,12,1.0,1.0,1.0*30
$GPRMC,190359.701,A,3809.758,N,12227.520,W,038.9,066.8,240318,000.0,W*64
$GPGGA,190400.701,3809.763,N,12227.508,W,1,12,1.0,0.0,M,0.0,M,,*7F
$GPGSA,A,3,01,02,03,04,05,06,07,08,09,10,11,12,1.0,1.0,1.0*30
$GPRMC,190400.701,A,3809.763,N,12227.508,W,038.9,066.8,240318,000.0,W*6D
$GPGGA,190401.701,3809.768,N,12227.496,W,1,12,1.0,0.0,M,0.0,M,,*73
$GPGSA,A,3,01,02,03,04,05,06,07,08,09,10,11,12,1.0,1.0,1.0*30
$GPRMC,190401.701,A,3809.768,N,12227.496,W,038.9,037.1,240318,000.0,W*6C
$GPGGA,190402.701,3809.777,N,12227.489,W,1,12,1.0,0.0,M,0.0,M,,*70
$GPGSA,A,3,01,02,03,04,05,06,07,08,09,10,11,12,1.0,1.0,1.0*30
$GPRMC,190402.701,A,3809.777,N,12227.489,W,038.9,037.1,240318,000.0,W*6F
$GPGGA,190403.701,3809.787,N,12227.482,W,1,12,1.0,0.0,M,0.0,M,,*75
$GPGSA,A,3,01,02,03,04,05,06,07,08,09,10,11,12,1.0,1.0,1.0*30
$GPRMC,190403.701,A,3809.787,N,12227.482,W,038.9,015.3,240318,000.0,W*68
$GPGGA,190404.701,3809.797,N,12227.479,W,1,12,1.0,0.0,M,0.0,M,,*77
$GPGSA,A,3,01,02,03,04,05,06,07,08,09,10,11,12,1.0,1.0,1.0*30
$GPRMC,190404.701,A,3809.797,N,12227.479,W,038.9,348.8,240318,000.0,W*6A
$GPGGA,190405.701,3809.808,N,12227.481,W,1,12,1.0,0.0,M,0.0,M,,*78
$GPGSA,A,3,01,02,03,04,05,06,07,08,09,10,11,12,1.0,1.0,1.0*30
$GPRMC,190405.701,A,3809.808,N,12227.481,W,038.9,348.8,240318,000.0,W*65
$GPGGA,190406.701,3809.818,N,12227.483,W,1,12,1.0,0.0,M,0.0,M,,*78
$GPGSA,A,3,01,02,03,04,05,06,07,08,09,10,11,12,1.0,1.0,1.0*30
$GPRMC,190406.701,A,3809.818,N,12227.483,W,038.9,319.1,240318,000.0,W*68
$GPGGA,190407.701,3809.827,N,12227.491,W,1,12,1.0,0.0,M,0.0,M,,*76
$GPGSA,A,3,01,02,03,04,05,06,07,08,09,10,11,12,1.0,1.0,1.0*30
$GPRMC,190407.701,A,3809.827,N,12227.491,W,038.9,319.1,240318,000.0,W*66
$GPGGA,190408.701,3809.836,N,12227.499,W,1,12,1.0,0.0,M,0.0,M,,*71
$GPGSA,A,3,01,02,03,04,05,06,07,08,09,10,11,12,1.0,1.0,1.0*30
$GPRMC,190408.701,A,3809.836,N,12227.499,W,038.9,304.2,240318,000.0,W*6E
$GPGGA,190409.701,3809.843,N,12227.509,W,1,12,1.0,0.0,M,0.0,M,,*7A
$GPGSA,A,3,01,02,03,04,05,06,07,08,09,10,11,12,1.0,1.0,1.0*30
$GPRMC,190409.701,A,3809.843,N,12227.509,W,038.9,304.2,240318,000.0,W*65
$GPGGA,190410.701,3809.850,N,12227.519,W,1,12,1.0,0.0,M,0.0,M,,*71
$GPGSA,A,3,01,02,03,04,05,06,07,08,09,10,11,12,1.0,1.0,1.0*30
$GPRMC,190410.701,A,3809.850,N,12227.519,W,038.9,304.2,240318,000.0,W*6E
$GPGGA,190411.701,3809.857,N,12227.530,W,1,12,1.0,0.0,M,0.0,M,,*7C
$GPGSA,A,3,01,02,03,04,05,06,07,08,09,10,11,12,1.0,1.0,1.0*30
$GPRMC,190411.701,A,3809.857,N,12227.530,W,038.9,304.2,240318,000.0,W*63
$GPGGA,190412.701,3809.864,N,12227.540,W,1,12,1.0,0.0,M,0.0,M,,*78
$GPGSA,A,3,01,02,03,04,05,06,07,08,09,10,11,12,1.0,1.0,1.0*30
$GPRMC,190412.701,A,3809.864,N,12227.540,W,038.9,303.3,240318,000.0,W*61
$GPGGA,190413.701,3809.871,N,12227.551,W,1,12,1.0,0.0,M,0.0,M,,*7D
$GPGSA,A,3,01,02,03,04,05,06,07,08,09,10,11,12,1.0,1.0,1.0*30
$GPRMC,190413.701,A,3809.871,N,12227.551,W,038.9,303.3,240318,000.0,W*64
$GPGGA,190414.701,3809.878,N,12227.561,W,1,12,1.0,0.0,M,0.0,M,,*70
$GPGSA,A,3,01,02,03,04,05,06,07,08,09,10,11,12,1.0,1.0,1.0*30
$GPRMC,190414.701,A,3809.878,N,12227.561,W,038.9,303.3,240318,000.0,W*69
$GPGGA,190415.701,3809.885,N,12227.572,W,1,12,1.0,0.0,M,0.0,M,,*71
$GPGSA,A,3,01,02,03,04,05,06,07,08,09,10,11,12,1.0,1.0,1.0*30
$GPRMC,190415.701,A,3809.885,N,12227.572,W,038.9,303.3,240318,000.0,W*68
$GPGGA,190416.701,3809.892,N,12227.582,W,1,12,1.0,0.0,M,0.0,M,,*7B
$GPGSA,A,3,01,02,03,04,05,06,07,08,09,10,11,12,1.0,1.0,1.0*30
$GPRMC,190416.701,A,3809.892,N,12227.582,W,038.9,303.3,240318,000.0,W*62
$GPGGA,190417.701,3809.899,N,12227.593,W,1,12,1.0,0.0,M,0.0,M,,*71
$GPGSA,A,3,01,02,03,04,05,06,07,08,09,10,11,12,1.0,1.0,1.0*30
$GPRMC,190417.701,A,3809.899,N,12227.593,W,038.9,302.8,240318,000.0,W*62
$GPGGA,190418.701,3809.906,N,12227.603,W,1,12,1.0,0.0,M,0.0,M,,*73
$GPGSA,A,3,01,02,03,04,05,06,07,08,09,10,11,12,1.0,1.0,1.0*30
$GPRMC,190418.701,A,3809.906,N,12227.603,W,038.9,302.8,240318,000.0,W*60
$GPGGA,190419.701,3809.913,N,12227.614,W,1,12,1.0,0.0,M,0.0,M,,*70
$GPGSA,A,3,01,02,03,04,05,06,07,08,09,10,11,12,1.0,1.0,1.0*30
$GPRMC,190419.701,A,3809.913,N,12227.614,W,038.9,024.3,240318,000.0,W*6F
$GPGGA,190420.701,3809.923,N,12227.609,W,1,12,1.0,0.0,M,0.0,M,,*75
$GPGSA,A,3,01,02,03,04,05,06,07,08,09,10,11,12,1.0,1.0,1.0*30
$GPRMC,190420.701,A,3809.923,N,12227.609,W,038.9,069.9,240318,000.0,W*69
$GPGGA,190421.701,3809.927,N,12227.597,W,1,12,1.0,0.0,M,0.0,M,,*74
$GPGSA,A,3,01,02,03,04,05,06,07,08,09,10,11,12,1.0,1.0,1.0*30
$GPRMC,190421.701,A,3809.927,N,12227.597,W,038.9,101.0,240318,000.0,W*6E
$GPGGA,190422.701,3809.925,N,12227.584,W,1,12,1.0,0.0,M,0.0,M,,*77
$GPGSA,A,3,01,02,03,04,05,06,07,08,09,10,11,12,1.0,1.0,1.0*30
$GPRMC,190422.701,A,3809.925,N,12227.584,W,038.9,129.0,240318,000.0,W*67
$GPGGA,190423.701,3809.917,N,12227.574,W,1,12,1.0,0.0,M,0.0,M,,*78
$GPGSA,A,3,01,02,03,04,05,06,07,08,09,10,11,12,1.0,1.0,1.0*30
$GPRMC,190423.701,A,3809.917,N,12227.574,W,038.9,129.0,240318,000.0,W*68
$GPGGA,190424.701,3809.909,N,12227.565,W,1,12,1.0,0.0,M,0.0,M,,*70
$GPGSA,A,3,01,02,03,04,05,06,07,08,09,10,11,12,1.0,1.0,1.0*30
$GPRMC,190424.701,A,3809.909,N,12227.565,W,038.9,129.0,240318,000.0,W*60
$GPGGA,190425.701,3809.902,N,12227.555,W,1,12,1.0,0.0,M,0.0,M,,*79
$GPGSA,A,3,01,02,03,04,05,06,07,08,09,10,11,12,1.0,1.0,1.0*30
$GPRMC,190425.701,A,3809.902,N,12227.555,W,038.9,112.5,240318,000.0,W*64
$GPGGA,190426.701,3809.897,N,12227.543,W,1,12,1.0,0.0,M,0.0,M,,*70
$GPGSA,A,3,01,02,03,04,05,06,07,08,09,10,11,12,1.0,1.0,1.0*30
$GPRMC,190426.701,A,3809.897,N,12227.543,W,038.9,112.5,240318,000.0,W*6D
$GPGGA,190427.701,3809.892,N,12227.531,W,1,12,1.0,0.0,M,0.0,M,,*71
$GPGSA,A,3,01,02,03,04,05,06,07,08,09,10,11,12,1.0,1.0,1.0*30
$GPRMC,190427.701,A,3809.892,N,12227.531,W,038.9,089.7,240318,000.0,W*6D
$GPGGA,190428.701,3809.892,N,12227.517,W,1,12,1.0,0.0,M,0.0,M,,*7A
$GPGSA,A,3,01,02,03,04,05,06,07,08,09,10,11,12,1.0,1.0,1.0*30
$GPRMC,190428.701,A,3809.892,N,12227.517,W,038.9,089.7,240318,000.0,W*66
$GPGGA,190429.701,3809.892,N,12227.503,W,1,12,1.0,0.0,M,0.0,M,,*7E
$GPGSA,A,3,01,02,03,04,05,06,07,08,09,10,11,12,1.0,1.0,1.0*30
$GPRMC,190429.701,A,3809.892,N,12227.503,W,038.9,089.7,240318,000.0,W*62
$GPGGA,190430.701,3809.892,N,12227.489,W,1,12,1.0,0.0,M,0.0,M,,*75
$GPGSA,A,3,01,02,03,04,05,06,07,08,09,10,11,12,1.0,1.0,1.0*30
$GPRMC,190430.701,A,3809.892,N,12227.489,W,038.9,099.6,240318,000.0,W*69
$GPGGA,190431.701,3809.890,N,12227.476,W,1,12,1.0,0.0,M,0.0,M,,*76
$GPGSA,A,3,01,02,03,04,05,06,07,08,09,10,11,12,1.0,1.0,1.0*30
$GPRMC,190431.701,A,3809.890,N,12227.476,W,038.9,114.0,240318,000.0,W*68
$GPGGA,190432.701,3809.884,N,12227.464,W,1,12,1.0,0.0,M,0.0,M,,*73
$GPGSA,A,3,01,02,03,04,05,06,07,08,09,10,11,12,1.0,1.0,1.0*30
$GPRMC,190432.701,A,3809.884,N,12227.464,W,038.9,114.0,240318,000.0,W*6D
$GPGGA,190433.701,3809.879,N,12227.452,W,1,12,1.0,0.0,M,0.0,M,,*75
$GPGSA,A,3,01,02,03,04,05,06,07,08,09,10,11,12,1.0,1.0,1.0*30
$GPRMC,190433.701,A,3809.879,N,12227.452,W,038.9,129.2,240318,000.0,W*67
$GPGGA,190434.701,3809.871,N,12227.443,W,1,12,1.0,0.0,M,0.0,M,,*7A
$GPGSA,A,3,01,02,03,04,05,06,07,08,09,10,11,12,1.0,1.0,1.0*30
$GPRMC,190434.701,A,3809.871,N,12227.443,W,038.9,129.2,240318,000.0,W*68
$GPGGA,190435.701,3809.863,N,12227.433,W,1,12,1.0,0.0,M,0.0,M,,*7F
$GPGSA,A,3,01,02,03,04,05,06,07,08,09,10,11,12,1.0,1.0,1.0*30
$GPRMC,190435.701,A,3809.863,N,12227.433,W,038.9,142.8,240318,000.0,W*6A
$GPGGA,190436.701,3809.854,N,12227.426,W,1,12,1.0,0.0,M,0.0,M,,*7C
$GPGSA,A,3,01,02,03,04,05,06,07,08,09,10,11,12,1.0,1.0,1.0*30
$GPRMC,190436.701,A,3809.854,N,12227.426,W,038.9,142.8,240318,000.0,W*69
$GPGGA,190437.701,3809.845,N,12227.419,W,1,12,1.0,0.0,M,0.0,M,,*71
$GPGSA,A,3,01,02,03,04,05,06,07,08,09,10,11,12,1.0,1.0,1.0*30
$GPRMC,190437.701,A,3809.845,N,12227.419,W,038.9,142.8,240318,000.0,W*64
$GPGGA,190438.701,3809.836,N,12227.412,W,1,12,1.0,0.0,M,0.0,M,,*71
$GPGSA,A,3,01,02,03,04,05,06,07,08,09,10,11,12,1.0,1.0,1.0*30
$GPRMC,190438.701,A,3809.836,N,12227.412,W,038.9,142.8,240318,000.0,W*64
$GPGGA,190439.701,3809.826,N,12227.405,W,1,12,1.0,0.0,M,0.0,M,,*77
$GPGSA,A,3,01,02,03,04,05,06,07,08,09,10,11,12,1.0,1.0,1.0*30
$GPRMC,190439.701,A,3809.826,N,12227.405,W,038.9,142.8,240318,000.0,W*62
$GPGGA,190440.701,3809.817,N,12227.398,W,1,12,1.0,0.0,M,0.0,M,,*78
$GPGSA,A,3,01,02,03,04,05,06,07,08,09,10,11,12,1.0,1.0,1.0*30
$GPRMC,190440.701,A,3809.817,N,12227.398,W,038.9,142.8,240318,000.0,W*6D
$GPGGA,190441.701,3809.808,N,12227.391,W,1,12,1.0,0.0,M,0.0,M,,*7E
$GPGSA,A,3,01,02,03,04,05,06,07,08,09,10,11,12,1.0,1.0,1.0*30
$GPRMC,190441.701,A,3809.808,N,12227.391,W,038.9,142.8,240318,000.0,W*6B
$GPGGA,190442.701,3809.799,N,12227.384,W,1,12,1.0,0.0,M,0.0,M,,*7E
$GPGSA,A,3,01,02,03,04,05,06,07,08,09,10,11,12,1.0,1.0,1.0*30
$GPRMC,190442.701,A,3809.799,N,12227.384,W,038.9,124.3,240318,000.0,W*60
$GPGGA,190443.701,3809.791,N,12227.373,W,1,12,1.0,0.0,M,0.0,M,,*7F
$GPGSA,A,3,01,02,03,04,05,06,07,08,09,10,11,12,1.0,1.0,1.0*30
$GPRMC,190443.701,A,3809.791,N,12227.373,W,038.9,124.3,240318,000.0,W*61
$GPGGA,190444.701,3809.784,N,12227.363,W,1,12,1.0,0.0,M,0.0,M,,*7D
$GPGSA,A,3,01,02,03,04,05,06,07,08,09,10,11,12,1.0,1.0,1.0*30
$GPRMC,190444.701,A,3809.784,N,12227.363,W,038.9,124.3,240318,000.0,W*63
$GPGGA,190445.701,3809.777,N,12227.353,W,1,12,1.0,0.0,M,0.0,M,,*73
$GPGSA,A,3,01,02,03,04,05,06,07,08,09,10,11,12,1.0,1.0,1.0*30
$GPRMC,190445.701,A,3809.777,N,12227.353,W,038.9,124.3,240318,000.0,W*6D
$GPGGA,190446.701,3809.770,N,12227.342,W,1,12,1.0,0.0,M,0.0,M,,*77
$GPGSA,A,3,01,02,03,04,05,06,07,08,09,10,11,12,1.0,1.0,1.0*30
$GPRMC,190446.701,A,3809.770,N,12227.342,W,038.9,115.4,240318,000.0,W*6C
$GPGGA,190447.701,3809.765,N,12227.331,W,1,12,1.0,0.0,M,0.0,M,,*76
$GPGSA,A,3,01,02,03,04,05,06,07,08,09,10,11,12,1.0,1.0,1.0*30
$GPRMC,190447.701,A,3809.765,N,12227.331,W,038.9,115.4,240318,000.0,W*6D
$GPGGA,190448.701,3809.759,N,12227.319,W,1,12,1.0,0.0,M,0.0,M,,*7C
$GPGSA,A,3,01,02,03,04,05,06,07,08,09,10,11,12,1.0,1.0,1.0*30
$GPRMC,190448.701,A,3809.759,N,12227.319,W,038.9,115.4,240318,000.0,W*67
$GPGGA,190449.701,3809.754,N,12227.307,W,1,12,1.0,0.0,M,0.0,M,,*7F
$GPGSA,A,3,01,02,03,04,05,06,07,08,09,10,11,12,1.0,1.0,1.0*30
$GPRMC,190449.701,A,3809.754,N,12227.307,W,038.9,106.6,240318,000.0,W*64
$GPGGA,190450.701,3809.750,N,12227.294,W,1,12,1.0,0.0,M,0.0,M,,*78
$GPGSA,A,3,01,02,03,04,05,06,07,08,09,10,11,12,1.0,1.0,1.0*30
$GPRMC,190450.701,A,3809.750,N,12227.294,W,038.9,106.6,240318,000.0,W*63
$GPGGA,190451.701,3809.746,N,12227.281,W,1,12,1.0,0.0,M,0.0,M,,*7A
$GPGSA,A,3,01,02,03,04,05,06,07,08,09,10,11,12,1.0,1.0,1.0*30
$GPRMC,190451.701,A,3809.746,N,12227.281,W,038.9,106.6,240318,000.0,W*61
$GPGGA,190452.701,3809.742,N,12227.269,W,1,12,1.0,0.0,M,0.0,M,,*7B
$GPGSA,A,3,01,02,03,04,05,06,07,08,09,10,11,12,1.0,1.0,1.0*30
$GPRMC,190452.701,A,3809.742,N,12227.269,W,038.9,096.8,240318,000.0,W*66
$GPGGA,190453.701,3809.740,N,12227.255,W,1,12,1.0,0.0,M,0.0,M,,*77
$GPGSA,A,3,01,02,03,04,05,06,07,08,09,10,11,12,1.0,1.0,1.0*30
$GPRMC,190453.701,A,3809.740,N,12227.255,W,038.9,096.8,240318,000.0,W*6A
$GPGGA,190454.701,3809.739,N,12227.241,W,1,12,1.0,0.0,M,0.0,M,,*7B
$GPGSA,A,3,01,02,03,04,05,06,07,08,09,10,11,12,1.0,1.0,1.0*30
$GPRMC,190454.701,A,3809.739,N,12227.241,W,038.9,096.8,240318,000.0,W*66
$GPGGA,190455.701,3809.737,N,12227.228,W,1,12,1.0,0.0,M,0.0,M,,*7B
$GPGSA,A,3,01,02,03,04,05,06,07,08,09,10,11,12,1.0,1.0,1.0*30
$GPRMC,190455.701,A,3809.737,N,12227.228,W,038.9,105.7,240318,000.0,W*62
$GPGGA,190456.701,3809.734,N,12227.215,W,1,12,1.0,0.0,M,0.0,M,,*75
$GPGSA,A,3,01,02,03,04,05,06,07,08,09,10,11,12,1.0,1.0,1.0*30
$GPRMC,190456.701,A,3809.734,N,12227.215,W,038.9,115.6,240318,000.0,W*6C
$GPGGA,190457.701,3809.728,N,12227.203,W,1,12,1.0,0.0,M,0.0,M,,*7E
$GPGSA,A,3,01,02,03,04,05,06,07,08,09,10,11,12,1.0,1.0,1.0*30
$GPRMC,190457.701,A,3809.728,N,12227.203,W,038.9,125.2,240318,000.0,W*60
$GPGGA,190458.701,3809.721,N,12227.193,W,1,12,1.0,0.0,M,0.0,M,,*72
$GPGSA,A,3,01,02,03,04,05,06,07,08,09,10,11,12,1.0,1.0,1.0*30
$GPRMC,190458.701,A,3809.721,N,12227.193,W,038.9,125.2,240318,000.0,W*6C
$GPGGA,190459.701,3809.714,N,12227.183,W,1,12,1.0,0.0,M,0.0,M,,*74
$GPGSA,A,3,01,02,03,04,05,06,07,08,09,10,11,12,1.0,1.0,1.0*30
$GPRMC,190459.701,A,3809.714,N,12227.183,W,038.9,151.9,240318,000.0,W*62
$GPGGA,190500.701,3809.704,N,12227.177,W,1,12,1.0,0.0,M,0.0,M,,*73
$GPGSA,A,3,01,02,03,04,05,06,07,08,09,10,11,12,1.0,1.0,1.0*30
$GPRMC,190500.701,A,3809.704,N,12227.177,W,038.9,151.9,240318,000.0,W*65
$GPGGA,190501.701,3809.694,N,12227.172,W,1,12,1.0,0.0,M,0.0,M,,*7F
$GPGSA,A,3,01,02,03,04,05,06,07,08,09,10,11,12,1.0,1.0,1.0*30
$GPRMC,190501.701,A,3809.694,N,12227.172,W,038.9,159.6,240318,000.0,W*6E
$GPGGA,190502.701,3809.683,N,12227.168,W,1,12,1.0,0.0,M,0.0,M,,*71
$GPGSA,A,3,01,02,03,04,05,06,07,08,09,10,11,12,1.0,1.0,1.0*30
$GPRMC,190502.701,A,3809.683,N,12227.168,W,038.9,159.6,240318,000.0,W*60
$GPGGA,190503.701,3809.673,N,12227.164,W,1,12,1.0,0.0,M,0.0,M,,*73
$GPGSA,A,3,01,02,03,04,05,06,07,08,09,10,11,12,1.0,1.0,1.0*30
$GPRMC,190503.701,A,3809.673,N,12227.164,W,038.9,159.6,240318,000.0,W*62
$GPGGA,190504.701,3809.663,N,12227.160,W,1,12,1.0,0.0,M,0.0,M,,*71
$GPGSA,A,3,01,02,03,04,05,06,07,08,09,10,11,12,1.0,1.0,1.0*30
$GPRMC,190504.701,A,3809.663,N,12227.160,W,038.9,159.6,240318,000.0,W*60
$GPGGA,190505.701,3809.652,N,12227.157,W,1,12,1.0,0.0,M,0.0,M,,*76
$GPGSA,A,3,01,02,03,04,05,06,07,08,09,10,11,12,1.0,1.0,1.0*30
$GPRMC,190505.701,A,3809.652,N,12227.157,W,038.9,159.6,240318,000.0,W*67
$GPGGA,190506.701,3809.642,N,12227.153,W,1,12,1.0,0.0,M,0.0,M,,*70
$GPGSA,A,3,01,02,03,04,05,06,07,08,09,10,11,12,1.0,1.0,1.0*30
$GPRMC,190506.701,A,3809.642,N,12227.153,W,038.9,159.6,240318,000.0,W*61
$GPGGA,190507.701,3809.632,N,12227.149,W,1,12,1.0,0.0,M,0.0,M,,*7D
$GPGSA,A,3,01,02,03,04,05,06,07,08,09,10,11,12,1.0,1.0,1.0*30
$GPRMC,190507.701,A,3809.632,N,12227.149,W,038.9,159.6,240318,000.0,W*6C
$GPGGA,190508.701,3809.621,N,12227.145,W,1,12,1.0,0.0,M,0.0,M,,*7C
$GPGSA,A,3,01,02,03,04,05,06,07,08,09,10,11,12,1.0,1.0,1.0*30
$GPRMC,190508.701,A,3809.621,N,12227.145,W,038.9,159.6,240318,000.0,W*6D
$GPGGA,190509.701,3809.611,N,12227.141,W,1,12,1.0,0.0,M,0.0,M,,*7A
$GPGSA,A,3,01,02,03,04,05,06,07,08,09,10,11,12,1.0,1.0,1.0*30
$GPRMC,190509.701,A,3809.611,N,12227.141,W,038.9,159.6,240318,000.0,W*6B
$GPGGA,190510.701,3809.601,N,12227.137,W,1,12,1.0,0.0,M,0.0,M,,*72
$GPGSA,A,3,01,02,03,04,05,06,07,08,09,10,11,12,1.0,1.0,1.0*30
$GPRMC,190510.701,A,3809.601,N,12227.137,W,038.9,159.6,240318,000.0,W*63
$GPGGA,190511.701,3809.590,N,12227.133,W,1,12,1.0,0.0,M,0.0,M,,*7C
$GPGSA,A,3,01,02,03,04,05,06,07,08,09,10,11,12,1.0,1.0,1.0*30
$GPRMC,190511.701,A,3809.590,N,12227.133,W,038.9,159.6,240318,000.0,W*6D
$GPGGA,190512.701,3809.580,N,12227.130,W,1,12,1.0,0.0,M,0.0,M,,*7D
$GPGSA,A,3,01,02,03,04,05,06,07,08,09,10,11,12,1.0,1.0,1.0*30
$GPRMC,190512.701,A,3809.580,N,12227.130,W,038.9,159.6,240318,000.0,W*6C
$GPGGA,190513.701,3809.569,N,12227.126,W,1,12,1.0,0.0,M,0.0,M,,*7C
$GPGSA,A,3,01,02,03,04,05,06,07,08,09,10,11,12,1.0,1.0,1.0*30
$GPRMC,190513.701,A,3809.569,N,12227.126,W,038.9,159.6,240318,000.0,W*6D
